rosbagTimestamp,header,seq,stamp,secs,nsecs,frame_id,pose,position,x,y,z,orientation,x,y,z,w
1565339800953013751,,16,,1565339800,951281070,"""base_link""",,,-0.339173614979,0.856680572033,-0.0404289960861,,0.000292509396944,0.00366403684855,0.00388209776789,0.999985709192
1565339801053237147,,17,,1565339801,50987958,"""base_link""",,,-0.338963210583,0.856644392014,-0.0404326915741,,0.000287453054068,0.00371566736463,0.00383320126215,0.999985708775
1565339801155453370,,18,,1565339801,151844978,"""base_link""",,,-0.338794648647,0.856852173805,-0.0400445461273,,0.000304247566153,0.0036423668891,0.00379410872485,0.999986122572
1565339801281290683,,19,,1565339801,265779972,"""base_link""",,,-0.338700592518,0.856958806515,-0.0400524139404,,0.00032213029533,0.00361116775494,0.00377147304981,0.999986315752
1565339801353163893,,20,,1565339801,352701902,"""base_link""",,,-0.338868200779,0.856941521168,-0.0400831699371,,0.000284922512184,0.00360504098327,0.0037064099739,0.999986592422
1565339801450552740,,21,,1565339801,449382066,"""base_link""",,,-0.338688671589,0.857010543346,-0.040097117424,,0.00030308793835,0.0036646085236,0.00368872199523,0.999986435964
1565339801553160322,,22,,1565339801,551532983,"""base_link""",,,-0.33893096447,0.856893539429,-0.0401757955551,,0.000315875752562,0.00369758116284,0.00366849968071,0.99998638502
1565339801659581230,,23,,1565339801,658514022,"""base_link""",,,-0.338907897472,0.856955230236,-0.0399210453033,,0.000320819987813,0.0036939278563,0.00367231677347,0.999986382938
1565339801750596459,,24,,1565339801,749732971,"""base_link""",,,-0.338874280453,0.856719732285,-0.0399861335754,,0.000306514426477,0.00359283478008,0.00361349176934,0.999986970047
1565339801851005772,,25,,1565339801,849695920,"""base_link""",,,-0.338833391666,0.856408417225,-0.0403659343719,,0.000302467579893,0.00367843093473,0.003577353798,0.999986790012
1565339801955124814,,26,,1565339801,953269004,"""base_link""",,,-0.338706433773,0.856894373894,-0.0400171279907,,0.000300039633942,0.00361218471824,0.00355314410635,0.999987118549
1565339802053175283,,27,,1565339802,52398920,"""base_link""",,,-0.339095950127,0.856670856476,-0.0404406785965,,0.000291815885422,0.00361828073194,0.00353850725324,0.999987150845
1565339802152120254,,28,,1565339802,150919914,"""base_link""",,,-0.338719010353,0.856946349144,-0.0400232076645,,0.000291007276345,0.0036017212527,0.00353730900975,0.9999872151
1565339802250264704,,29,,1565339802,249200105,"""base_link""",,,-0.338858783245,0.856505215168,-0.0402456521988,,0.000277366904812,0.00361866810485,0.00347127371666,0.999987389204
1565339802349499958,,30,,1565339802,348964929,"""base_link""",,,-0.339108228683,0.856643080711,-0.0404525995255,,0.000274198122561,0.00361659638774,0.00346349528951,0.999987424544
1565339802452258053,,31,,1565339802,448694944,"""base_link""",,,-0.33901143074,0.856792509556,-0.0400735139847,,0.000248504835376,0.00362070849157,0.00340744632609,0.999987608936
1565339802557644875,,32,,1565339802,556509971,"""base_link""",,,-0.339063763618,0.856953680515,-0.0402705669403,,0.000230166067962,0.00360541432339,0.00340281429357,0.999987684357
1565339802649777418,,33,,1565339802,648601055,"""base_link""",,,-0.338717103004,0.856894493103,-0.0401109457016,,0.000234454996998,0.00352010045285,0.00338993222552,0.99998803107
1565339802749375582,,34,,1565339802,748681068,"""base_link""",,,-0.338661074638,0.856726527214,-0.0401227474213,,0.000204433306558,0.00344676086453,0.00339567347637,0.999988273655
1565339802851796503,,35,,1565339802,850574970,"""base_link""",,,-0.338733613491,0.856918811798,-0.0398743152618,,0.00016866761231,0.00354809857559,0.00339008706212,0.999987944856
1565339802949421240,,36,,1565339802,948704004,"""base_link""",,,-0.338843345642,0.856956481934,-0.0402673482895,,0.000170915554492,0.00363660049264,0.00336344303682,0.999987716512
1565339803050550570,,37,,1565339803,49801111,"""base_link""",,,-0.338584065437,0.856806755066,-0.0400102138519,,0.000185751362671,0.00373630856115,0.00334752041184,0.999987399722
1565339803149902647,,38,,1565339803,149139881,"""base_link""",,,-0.339061558247,0.856759488583,-0.0401438474655,,0.00021157354676,0.00382048711255,0.00332801930783,0.999987141619
1565339803253351932,,39,,1565339803,248559951,"""base_link""",,,-0.338789284229,0.856841564178,-0.0401146411896,,0.000261440786346,0.00380676494441,0.00328061281534,0.999987338804
1565339803350893253,,40,,1565339803,348866939,"""base_link""",,,-0.338994145393,0.856660604477,-0.0404127836227,,0.000269607241782,0.00376952194892,0.0032692389201,0.999987514969
1565339803449984554,,41,,1565339803,448086023,"""base_link""",,,-0.33870279789,0.856972932816,-0.0400379896164,,0.000235581751356,0.00368843235683,0.0032456352455,0.999987902837
1565339803548889596,,42,,1565339803,548316955,"""base_link""",,,-0.338904857635,0.856844305992,-0.0400272607803,,0.000229618011919,0.00367407842286,0.0032399837889,0.999987975392
1565339803649499626,,43,,1565339803,648062944,"""base_link""",,,-0.338867545128,0.856776356697,-0.0400629043579,,0.000257490219646,0.00366129465181,0.00324209539069,0.999988008647
1565339803748472530,,44,,1565339803,747442007,"""base_link""",,,-0.338890254498,0.856908023357,-0.040004491806,,0.000246794988471,0.00369537896231,0.0032301808578,0.999987924526
1565339803858586798,,45,,1565339803,856198072,"""base_link""",,,-0.338695406914,0.85663318634,-0.040208697319,,0.000223351423574,0.00366409204518,0.00318186510992,0.999988200069
1565339803948533271,,46,,1565339803,947707891,"""base_link""",,,-0.338623940945,0.856776177883,-0.0399601459503,,0.000227823434677,0.00362966734175,0.00316343948081,0.999988383064
1565339804048545560,,47,,1565339804,47919988,"""base_link""",,,-0.338734984398,0.856853961945,-0.040065407753,,4.62699879315e-07,-2.26492543551e-05,4.58604678178e-05,0.999999998692
1565339804153421718,,48,,1565339804,150476932,"""base_link""",,,-0.33920353651,0.856673955917,-0.0400903224945,,4.14751215422e-05,-5.31728176942e-05,3.29131325342e-05,0.999999997185
1565339804249203473,,49,,1565339804,247309923,"""base_link""",,,-0.338676273823,0.856828212738,-0.0402785539627,,7.8039254618e-05,0.000187706661616,6.23070125122e-05,0.999999977397
1565339804351037260,,50,,1565339804,348768949,"""base_link""",,,-0.338621795177,0.856673359871,-0.0401803255081,,0.000140286455538,0.0010988022116,6.64069167143e-05,0.999999384272
1565339804448694118,,51,,1565339804,447159051,"""base_link""",,,-0.338929653168,0.856734633446,-0.0403077602386,,0.0001850478221,0.00231534333882,7.73261951553e-05,0.999997299478
1565339804557473032,,52,,1565339804,551517009,"""base_link""",,,-0.338979959488,0.856654703617,-0.0401121377945,,0.000193830046163,0.00323326161692,9.36123789121e-05,0.999994749829
1565339804650244712,,53,,1565339804,647830963,"""base_link""",,,-0.339074313641,0.856731176376,-0.0401947498322,,0.000187403710867,0.00371915021371,2.63295613148e-05,0.99999306603
1565339804747377488,,54,,1565339804,746800899,"""base_link""",,,-0.338563621044,0.856918334961,-0.0401153564453,,0.000146204991011,0.00391257023418,3.77984378615e-05,0.999992334465
1565339804848577762,,55,,1565339804,848078012,"""base_link""",,,-0.338833808899,0.856790840626,-0.0402064323425,,0.000173356771639,0.00404039538374,5.40482231939e-05,0.999991821082
1565339804948003693,,56,,1565339804,946826934,"""base_link""",,,-0.338918566704,0.856671631336,-0.040071606636,,0.000214887882938,0.00407347835126,5.60092805027e-05,0.999991678696
1565339805049124081,,57,,1565339805,47904014,"""base_link""",,,-0.338704228401,0.856632947922,-0.0400381088257,,0.000208646462871,0.00402626634968,6.35712390327e-05,0.999991870769
1565339805165679927,,58,,1565339805,159665107,"""base_link""",,,-0.339022517204,0.856638073921,-0.0402320623398,,0.000185996589818,0.00395035296251,8.18727288356e-05,0.999992176676
1565339805248202538,,59,,1565339805,247486114,"""base_link""",,,-0.338645398617,0.856642723083,-0.0402064323425,,0.000174446856439,0.00396668377672,0.000106976172064,0.999992111741
1565339805349220254,,60,,1565339805,348737955,"""base_link""",,,-0.338877141476,0.856947660446,-0.0399743318558,,0.000179677579757,0.00397866743211,0.000120508161576,0.999992061668
1565339805448510153,,61,,1565339805,446811914,"""base_link""",,,-0.338914334774,0.856736004353,-0.0404609441757,,0.000210935779537,0.0039610375984,0.000106766727906,0.999992127113
1565339805547747128,,62,,1565339805,546050071,"""base_link""",,,-0.338752269745,0.856852173805,-0.0404530763626,,0.000202469944852,0.00390002130084,0.00011022412482,0.999992368316
1565339805646065329,,63,,1565339805,645515918,"""base_link""",,,-0.339033067226,0.856727361679,-0.0403852462769,,0.000189372621007,0.00382599642158,0.000170992645649,0.999992648298
1565339805746646935,,64,,1565339805,745379924,"""base_link""",,,-0.338859677315,0.856999337673,-0.0402077436447,,0.000188672126451,0.00379129335254,0.000148498994968,0.999992784197
1565339805848049533,,65,,1565339805,846873998,"""base_link""",,,-0.339051783085,0.856778621674,-0.0405262708664,,0.000201120579625,0.00371156666262,0.000185521873074,0.999993074679
1565339805945908347,,66,,1565339805,945278882,"""base_link""",,,-0.338983893394,0.856763958931,-0.0402871370316,,0.000223641521881,0.00371054188376,0.000136258187417,0.999993081625
1565339806055860212,,67,,1565339806,55355072,"""base_link""",,,-0.339062094688,0.8567532897,-0.040270447731,,0.000213352431951,0.00367868342326,0.000121595354765,0.999993203469
1565339806150909169,,68,,1565339806,145715951,"""base_link""",,,-0.338895559311,0.856539845467,-0.0403281450272,,0.00024494228553,0.00368241665003,0.000118373690754,0.999993182876
1565339806247184382,,69,,1565339806,246701955,"""base_link""",,,-0.338838398457,0.856919646263,-0.0401318073273,,0.000196122938332,0.00374710002243,3.41345191344e-05,0.999992959781
1565339806346472296,,70,,1565339806,345830917,"""base_link""",,,-0.338933885098,0.856715977192,-0.0402063131332,,0.000103854903884,0.00370285759089,0.000196860428449,0.999993119629
1565339806446226621,,71,,1565339806,445122003,"""base_link""",,,-0.338484466076,0.857206821442,-0.0392481088638,,0.00232476934907,0.00404257853594,0.00405970860456,0.999980885703
1565339806545982728,,72,,1565339806,544967889,"""base_link""",,,-0.338733017445,0.858596920967,-0.0365182161331,,0.00623229451252,-0.00113960779458,0.0113310747509,0.999915729721
1565339806645493370,,73,,1565339806,644356012,"""base_link""",,,-0.338495612144,0.860545277596,-0.0302617549896,,0.00252802694517,-0.00834390513049,0.0163693293113,0.999828001901
1565339806747370011,,74,,1565339806,746227979,"""base_link""",,,-0.337266266346,0.8636251688,-0.0197585821152,,0.00207804075345,-0.00225940772359,0.0231921823485,0.999726312298
1565339806845963641,,75,,1565339806,844763040,"""base_link""",,,-0.334907829762,0.867355704308,-0.00726103782654,,0.00449578722024,-1.81167104951e-05,0.0277348108245,0.999605205988
1565339806947959250,,76,,1565339806,946538925,"""base_link""",,,-0.332341849804,0.870725750923,0.00744128227234,,0.00703471272201,0.00208048983007,0.0282025151471,0.999575311079
1565339807045083479,,77,,1565339807,44337034,"""base_link""",,,-0.330045938492,0.873937606812,0.0214890241623,,0.00171476356526,0.000203398779795,0.0286441734877,0.999588179972
1565339807145419139,,78,,1565339807,144506931,"""base_link""",,,-0.32771062851,0.876514017582,0.0356018543243,,0.00158423971487,0.00154144116514,0.0277639317312,0.999612063872
1565339807244410754,,79,,1565339807,243726015,"""base_link""",,,-0.325393855572,0.878334283829,0.0509439706802,,0.00347960278714,0.00367327627094,0.0275870098104,0.999606600766
1565339807349006586,,80,,1565339807,347978115,"""base_link""",,,-0.32347869873,0.88076376915,0.0681583881378,,0.000829872779962,0.00155115755166,0.0266590913314,0.999643035324
1565339807447397259,,81,,1565339807,446655035,"""base_link""",,,-0.32215487957,0.881943643093,0.0854417681694,,0.00109413166433,0.00130822263681,0.024907443311,0.999688306772
1565339807544131078,,82,,1565339807,543786048,"""base_link""",,,-0.321139991283,0.88336879015,0.101628065109,,0.00148540636545,0.00102370774828,0.0241037912471,0.999707833738
1565339807644203056,,83,,1565339807,643747091,"""base_link""",,,-0.319832384586,0.884319365025,0.11626547575,,0.000508579967821,0.000922478185529,0.0234852129129,0.999723629387
1565339807750554744,,84,,1565339807,746788978,"""base_link""",,,-0.319025039673,0.884958863258,0.128956079483,,0.00125624313025,0.00120157323545,0.022260186387,0.999750700013
1565339807844330476,,85,,1565339807,843620061,"""base_link""",,,-0.317994296551,0.885467529297,0.140361070633,,4.49569139595e-05,0.00146608403175,0.0209787402809,0.999778846062
1565339807943482469,,86,,1565339807,943068981,"""base_link""",,,-0.317586302757,0.885355651379,0.150571525097,,0.000351128637634,0.00112878066032,0.0200806201687,0.999797665159
1565339808045945383,,87,,1565339808,45440912,"""base_link""",,,-0.317515909672,0.885329246521,0.158690392971,,0.000431090679374,0.00114508182608,0.0194270996872,0.999810527423
1565339808143856489,,88,,1565339808,143510103,"""base_link""",,,-0.317407488823,0.884935617447,0.164418280125,,0.000896127373779,-0.00860903932951,0.0191301410727,0.999779535248
1565339808243953526,,89,,1565339808,243534088,"""base_link""",,,-0.315445423126,0.884583950043,0.168163836002,,-0.000582388172853,-0.0259473907582,0.0191956143184,0.999478825252
1565339808343456195,,90,,1565339808,343035936,"""base_link""",,,-0.309656023979,0.884860157967,0.171990394592,,0.000941881180326,-0.029239476141,0.0191898461898,0.999387770437
1565339808444550682,,91,,1565339808,443300008,"""base_link""",,,-0.299124956131,0.885223507881,0.17535752058,,0.00132904552612,-0.023832200016,0.0204908423298,0.999505070153
1565339808545724337,,92,,1565339808,544971942,"""base_link""",,,-0.283768415451,0.886272192001,0.179168224335,,-0.00109294604787,-0.0165302170653,0.0229953334814,0.999598305336
1565339808656898008,,93,,1565339808,655298948,"""base_link""",,,-0.265218615532,0.887626051903,0.184607863426,,-0.00216786549903,-0.00807406645884,0.0255527586257,0.999638517834
1565339808743034327,,94,,1565339808,742059946,"""base_link""",,,-0.245050013065,0.889568209648,0.190231144428,,-0.00239173101752,-0.00206193882079,0.0278402263113,0.999607397847
1565339808845836386,,95,,1565339808,844496011,"""base_link""",,,-0.224077165127,0.891524493694,0.196615159512,,-0.00262745212297,0.000758824932856,0.0286931117763,0.999584526699
1565339808942733647,,96,,1565339808,942131042,"""base_link""",,,-0.204486072063,0.894370317459,0.202248990536,,-0.00109253910553,0.00132697555427,0.0279360943829,0.999608233322
1565339809045701016,,97,,1565339809,45125007,"""base_link""",,,-0.185782313347,0.896905303001,0.207121193409,,0.000199392177504,0.000785627101411,0.0253058693561,0.999679426621
1565339809145533380,,98,,1565339809,143882036,"""base_link""",,,-0.167989552021,0.899713635445,0.210823655128,,0.00182084434445,3.21294838213e-05,0.0219489163606,0.999757434863
1565339809242806770,,99,,1565339809,242237091,"""base_link""",,,-0.150154352188,0.902097821236,0.212946534157,,0.00234936107642,-0.00128536626811,0.0192059992886,0.999811961284
1565339809343445586,,100,,1565339809,342124938,"""base_link""",,,-0.133252978325,0.904155254364,0.214498817921,,0.00355428663636,-0.00196583967775,0.0155129262454,0.999871417553
1565339809443009000,,101,,1565339809,441504001,"""base_link""",,,-0.115853607655,0.905537247658,0.215368807316,,0.00390752253481,-0.00202934811073,0.0125612783175,0.999911409726
1565339809544104028,,102,,1565339809,543355941,"""base_link""",,,-0.0980614423752,0.906078934669,0.215886354446,,0.00344557640101,-0.00216760764639,0.0109740287749,0.99993149774
1565339809643960735,,103,,1565339809,642175912,"""base_link""",,,-0.0793496966362,0.905765652657,0.216762721539,,0.0015768193096,-0.00144345349396,0.0115696926775,0.999930783752
1565339809742416787,,104,,1565339809,741775989,"""base_link""",,,-0.0603843331337,0.905021309853,0.216708540916,,0.000295427043401,-0.000862068537647,0.0138800090759,0.999903252774
1565339809847713218,,105,,1565339809,841274023,"""base_link""",,,-0.0414611697197,0.903461873531,0.217307686806,,-0.00119520744728,-0.00193556768826,0.0169746401778,0.999853332568
1565339809944193135,,106,,1565339809,942795991,"""base_link""",,,-0.0224999189377,0.902633786201,0.217587649822,,-0.00161820419202,-0.00250339616743,0.0202612787987,0.99979027551
1565339810046365037,,107,,1565339810,45046091,"""base_link""",,,-0.00269877910614,0.900906682014,0.217768549919,,-0.00224408008363,-0.00254124487663,0.0227670847847,0.999735047915
1565339810143310383,,108,,1565339810,141450881,"""base_link""",,,0.0165545344353,0.900103509426,0.217704355717,,-0.0034512093206,-0.00169640706174,0.0250622435157,0.999678495971
1565339810241705631,,109,,1565339810,241224050,"""base_link""",,,0.0372064709663,0.899648249149,0.218772947788,,-0.00450614859533,-0.00111469076602,0.0265437169581,0.99963687566
1565339810356262648,,110,,1565339810,355613946,"""base_link""",,,0.056842982769,0.899280548096,0.219680190086,,-0.004604667719,-8.82598295351e-05,0.02604628361,0.999650128973
1565339810442139596,,111,,1565339810,441524982,"""base_link""",,,0.0755586624146,0.900299549103,0.221436500549,,-0.00271891517199,-0.0011882060068,0.0232830498082,0.999724509682
1565339810545709220,,112,,1565339810,543350934,"""base_link""",,,0.09453779459,0.90168774128,0.223327577114,,-0.00153292758456,-0.00170900053027,0.0193585356105,0.999809970219
1565339810644811843,,113,,1565339810,644087076,"""base_link""",,,0.113570272923,0.903060972691,0.225326299667,,-0.000754200102462,-0.000793739934148,0.0142601673479,0.999897719162
1565339810745868902,,114,,1565339810,744761943,"""base_link""",,,0.132146775723,0.904581964016,0.226562976837,,0.00154146506855,-0.00041356758055,0.00945483785585,0.999954028388
1565339810842393344,,115,,1565339810,841919898,"""base_link""",,,0.150740683079,0.90635073185,0.227526783943,,0.00255953202226,-0.00129241535681,0.0063988224975,0.999975416462
1565339810942907464,,116,,1565339810,941663980,"""base_link""",,,0.170497000217,0.906583666801,0.22870439291,,0.00282656606145,-0.00145452482506,0.00454318310856,0.999984627066
1565339811043509336,,117,,1565339811,41279077,"""base_link""",,,0.189298510551,0.907067060471,0.230062186718,,0.00295314962159,-0.00196375920159,0.00421542169544,0.999984826273
1565339811143711429,,118,,1565339811,142016887,"""base_link""",,,0.208398401737,0.907042503357,0.230604350567,,0.00193463153253,-0.00143695583999,0.00450514168603,0.999986947943
1565339811241215463,,119,,1565339811,240031957,"""base_link""",,,0.228124201298,0.906169176102,0.230599403381,,0.000316578353153,-0.0012228490575,0.00458471018875,0.999988692361
1565339811343213885,,120,,1565339811,341808080,"""base_link""",,,0.248447567225,0.904599666595,0.230214297771,,-0.00165704231114,-0.000557222598886,0.00459262627134,0.999987925676
1565339811443672005,,121,,1565339811,441761970,"""base_link""",,,0.267926156521,0.904415428638,0.229060351849,,-0.00192482884814,-0.000163650204434,0.00489089138727,0.999986173621
1565339811542277353,,122,,1565339811,541033983,"""base_link""",,,0.288991093636,0.903293073177,0.227152884007,,-0.00119366144127,0.000292235836592,0.00580597159552,0.999982390077
1565339811652423775,,123,,1565339811,649648904,"""base_link""",,,0.308859884739,0.903074741364,0.225021004677,,-0.000684900578247,0.000277239010271,0.00750462275568,0.999971566939
1565339811744881558,,124,,1565339811,743911981,"""base_link""",,,0.328785687685,0.903191566467,0.223435282707,,-0.000747184365291,-0.000542488588692,0.00958273963159,0.999953658188
1565339811840977712,,125,,1565339811,840363025,"""base_link""",,,0.349184930325,0.90268689394,0.22202783823,,-0.00156095375127,-0.00119964746063,0.0114251977853,0.999932792304
1565339811942426753,,126,,1565339811,940855026,"""base_link""",,,0.36937892437,0.903017222881,0.221883952618,,-0.000968573067026,-0.000326756720732,0.012393363068,0.999922676835
1565339812041820143,,127,,1565339812,41003942,"""base_link""",,,0.390725821257,0.90267932415,0.222022652626,,-0.00157408218522,0.000373949503152,0.0127029043043,0.999918005963
1565339812141557209,,128,,1565339812,139941930,"""base_link""",,,0.411095917225,0.903609037399,0.223268985748,,-0.000295704731536,0.00126136879782,0.0130129596704,0.999914488538
1565339812241063082,,129,,1565339812,239923954,"""base_link""",,,0.432116419077,0.903766453266,0.223958909512,,-0.000105002441703,0.000527499351133,0.0122687810739,0.999924591022
1565339812342026735,,130,,1565339812,341274976,"""base_link""",,,0.451903373003,0.904674708843,0.224558532238,,-0.000837650260723,-0.000313572268764,0.0105672267149,0.999943765286
1565339812439627572,,131,,1565339812,438899993,"""base_link""",,,0.473084181547,0.904878377914,0.225208222866,,-0.00150245917081,0.000281985286979,0.0085041149662,0.999962670868
1565339812556757054,,132,,1565339812,553392887,"""base_link""",,,0.493071734905,0.905951559544,0.225482344627,,6.61671096823e-05,-0.000338534817467,0.00603712017262,0.999981716931
1565339812641955100,,133,,1565339812,640758037,"""base_link""",,,0.513970017433,0.906525731087,0.225665152073,,0.00152889209518,-3.08394873203e-05,0.00380675572934,0.999991585039
1565339812739508747,,134,,1565339812,738960981,"""base_link""",,,0.53411257267,0.908029913902,0.226351976395,,0.00148081407182,0.000169337031713,0.00230529644933,0.999996232054
1565339812842235758,,135,,1565339812,840289115,"""base_link""",,,0.554911971092,0.908204555511,0.226776778698,,0.00112356242136,0.000864393123026,0.00135114868566,0.999998082413
1565339812940954593,,136,,1565339812,940319061,"""base_link""",,,0.575594186783,0.908620357513,0.227879405022,,0.00208890578263,0.000193103753589,0.000273449722902,0.999997762202
1565339813040761549,,137,,1565339813,39537906,"""base_link""",,,0.595786333084,0.908733248711,0.229499578476,,0.00218655582313,-0.000762027348415,-0.000783385225063,0.999997012293
1565339813141104859,,138,,1565339813,140207052,"""base_link""",,,0.616080760956,0.907634913921,0.229816973209,,0.000749182813223,0.00267949951261,-0.00193745418427,0.999994252623
1565339813243068925,,139,,1565339813,240524053,"""base_link""",,,0.634794831276,0.90649831295,0.229439914227,,0.00211107671006,0.0269333676872,-0.00403520050091,0.999626857491
1565339813340423145,,140,,1565339813,338838100,"""base_link""",,,0.650358080864,0.90411823988,0.228045880795,,-0.000537236074388,0.0286053092129,-0.00627863393065,0.999570921155
1565339813440180995,,141,,1565339813,437674045,"""base_link""",,,0.660223424435,0.901386976242,0.22554987669,,-0.00017272338605,0.0239198831161,-0.0075584754779,0.999685289882
1565339813542010591,,142,,1565339813,539275884,"""base_link""",,,0.666273713112,0.897869884968,0.223511219025,,3.83634055112e-05,0.01687265007,-0.00709865273124,0.999832446632
1565339813638673347,,143,,1565339813,638089895,"""base_link""",,,0.667694091797,0.895021796227,0.222261786461,,-0.0020651880494,0.00819659997318,-0.00540135614889,0.999949686784
1565339813739101471,,144,,1565339813,738279104,"""base_link""",,,0.667750179768,0.891931891441,0.221258819103,,-0.00321860374137,0.00264334910419,-0.00374723417664,0.999984305643
1565339813840789103,,145,,1565339813,839951992,"""base_link""",,,0.667491436005,0.888072311878,0.219544529915,,-0.00242656906149,-0.000881351247332,-0.0031578172851,0.999991681552
1565339813941220424,,146,,1565339813,938128948,"""base_link""",,,0.667839825153,0.885208487511,0.218646407127,,-0.00259024534032,-0.00208021915243,-0.00336405012157,0.99998882318
1565339814043487136,,147,,1565339814,38636922,"""base_link""",,,0.668047428131,0.882897138596,0.217302143574,,-0.00304627117963,-0.000847929580755,-0.00378399766927,0.999987841231
1565339814137376533,,148,,1565339814,136552095,"""base_link""",,,0.66905361414,0.880787968636,0.215875923634,,-0.00262792461891,0.000287115598142,-0.00426338479723,0.999987417484
1565339814239461087,,149,,1565339814,238898992,"""base_link""",,,0.670249938965,0.879010677338,0.21450650692,,-0.00189844323528,-4.34749333813e-05,-0.00443675858586,0.99998835453
1565339814338709302,,150,,1565339814,338041067,"""base_link""",,,0.67232811451,0.877207159996,0.214374065399,,-0.0020006230267,0.000592082207065,-0.00391692632481,0.999990152269
1565339814440637052,,151,,1565339814,438932895,"""base_link""",,,0.673953175545,0.875768065453,0.214224219322,,-0.0027187004884,0.00172243696972,-0.0035380674482,0.999988561913
1565339814539496857,,152,,1565339814,537053108,"""base_link""",,,0.675428628922,0.87493956089,0.213904976845,,-0.00214340540786,0.00210155347921,-0.00325411881947,0.99999019995
1565339814638971688,,153,,1565339814,638442039,"""base_link""",,,0.676539480686,0.873787820339,0.213321268559,,-0.0014243839355,0.00154285474362,-0.00349092255282,0.99999170206
1565339814738003557,,154,,1565339814,737395048,"""base_link""",,,0.677999436855,0.873157858849,0.21294349432,,-0.000902834105641,0.00106304056069,-0.00386360221718,0.999991563671
1565339814838876426,,155,,1565339814,838062047,"""base_link""",,,0.679112315178,0.87241345644,0.212286233902,,-0.00173110160407,0.0014626729631,-0.00417618006734,0.999988711634
1565339814939868445,,156,,1565339814,938097953,"""base_link""",,,0.680023789406,0.872150659561,0.211255609989,,-0.00112634836128,0.0010711037461,-0.00419777261895,0.99998998134
1565339815039196582,,157,,1565339815,37308931,"""base_link""",,,0.681441366673,0.871518135071,0.210644602776,,-0.000645970512236,0.00104628867477,-0.00405144138109,0.999991036872
1565339815146028786,,158,,1565339815,145463943,"""base_link""",,,0.682993590832,0.871279358864,0.211241662502,,-0.0010033041259,0.000954889229306,-0.00607440518043,0.999980591396
1565339815237282736,,159,,1565339815,236531972,"""base_link""",,,0.683753490448,0.870771348476,0.212085723877,,-0.000488528088578,0.00146337474744,-0.0298791394613,0.999552328245
1565339815338418101,,160,,1565339815,336288928,"""base_link""",,,0.684306979179,0.869828820229,0.212959468365,,0.00017048897147,0.00104139496259,-0.0706702802656,0.997499171888
1565339815436553235,,161,,1565339815,435775041,"""base_link""",,,0.684970140457,0.868118703365,0.21302574873,,0.000773237541597,0.00110094406692,-0.122585136174,0.992457089458
1565339815539349140,,162,,1565339815,535984992,"""base_link""",,,0.685437679291,0.866184771061,0.212783038616,,9.54950434944e-05,0.00165704568619,-0.180820833668,0.983514652251
1565339815640714321,,163,,1565339815,637465000,"""base_link""",,,0.685285210609,0.864404320717,0.212557435036,,4.10529782254e-05,0.00265543999049,-0.242480473457,0.970152651362
1565339815738275772,,164,,1565339815,736315965,"""base_link""",,,0.684968233109,0.863388836384,0.213301897049,,0.000191421462947,0.00233177142065,-0.305425552378,0.952213084427
1565339815837483634,,165,,1565339815,835520982,"""base_link""",,,0.684282541275,0.862590909004,0.214159429073,,0.000698795348751,0.00187287815402,-0.366188158504,0.930538680864
1565339815936995343,,166,,1565339815,935076951,"""base_link""",,,0.683497190475,0.862600207329,0.215541005135,,-0.000548103604467,0.00141496862743,-0.424668308908,0.90534773698
1565339816036952080,,167,,1565339816,35060882,"""base_link""",,,0.682967066765,0.862988114357,0.217089176178,,0.0010462358963,-0.000754317028612,-0.480062957354,0.877233089533
1565339816138306293,,168,,1565339816,136214971,"""base_link""",,,0.682904601097,0.862616539001,0.217790544033,,0.000358434685106,-0.00320564590838,-0.532981251623,0.846120901986
1565339816237978607,,169,,1565339816,236462116,"""base_link""",,,0.682889461517,0.862473428249,0.218422412872,,0.000188874759737,-0.00300585776776,-0.585436072911,0.810712978606
1565339816335537063,,170,,1565339816,334878921,"""base_link""",,,0.682896077633,0.861069917679,0.21832883358,,0.000497341400455,-0.00181139186775,-0.637354274854,0.770568621108
1565339816449124052,,171,,1565339816,448486089,"""base_link""",,,0.683088302612,0.86002933979,0.217898130417,,8.94045317365e-05,-0.000511792192586,-0.677126802824,0.735866171917
1565339816540617739,,172,,1565339816,538849115,"""base_link""",,,0.684589266777,0.858499526978,0.216830134392,,0.0010970083174,0.000684331288754,-0.700231006314,0.713915167271
1565339816639199677,,173,,1565339816,637178897,"""base_link""",,,0.686798214912,0.855981469154,0.214892745018,,0.00178248161655,0.000263082390827,-0.712912005235,0.701251186337
1565339816741431843,,174,,1565339816,737514019,"""base_link""",,,0.689001917839,0.854147672653,0.212822675705,,0.00253559088019,-9.34276432037e-05,-0.719602956201,0.694381125519
1565339816837218850,,175,,1565339816,834558963,"""base_link""",,,0.691641688347,0.852113127708,0.210827291012,,0.00431443771195,-0.000513623848403,-0.722954154327,0.6908823435
1565339816937101104,,176,,1565339816,935954093,"""base_link""",,,0.694157838821,0.850422739983,0.209421098232,,0.00425025714801,-0.000877440411938,-0.724309601809,0.689461214384
1565339817037837512,,177,,1565339817,36463022,"""base_link""",,,0.696050822735,0.848505854607,0.208968102932,,0.00426378149015,-0.000838753961722,-0.724605505046,0.689150185893
1565339817138394206,,178,,1565339817,135649919,"""base_link""",,,0.697119653225,0.846861362457,0.208247840405,,0.00369407846354,-0.00147387964084,-0.72418146168,0.689597993052
1565339817251207068,,179,,1565339817,246212005,"""base_link""",,,0.697432160378,0.845548689365,0.208731293678,,0.00243012849121,-0.00134004415742,-0.723647274715,0.690164415596
1565339817341667268,,180,,1565339817,337631940,"""base_link""",,,0.69771450758,0.843973338604,0.208593845367,,0.00150715414945,-0.000806208249965,-0.722943083612,0.690905475715
1565339817437923078,,181,,1565339817,436456918,"""base_link""",,,0.697863698006,0.841657757759,0.207441687584,,-0.0154588636044,-0.0151198349523,-0.721354155473,0.692228716905
1565339817537915390,,182,,1565339817,535743951,"""base_link""",,,0.697998046875,0.836687445641,0.205482006073,,-0.0187064537684,-0.0184723926482,-0.719974144883,0.693502754138
1565339817640415885,,183,,1565339817,639878988,"""base_link""",,,0.698757767677,0.827467679977,0.204366803169,,-0.0180776669111,-0.017353944815,-0.719848396667,0.693678833737
1565339817735805736,,184,,1565339817,733706951,"""base_link""",,,0.70076084137,0.812562167645,0.204401135445,,-0.0126339761345,-0.0127362381511,-0.719841997141,0.693906095979
1565339817835060748,,185,,1565339817,834682941,"""base_link""",,,0.702451527119,0.794610738754,0.204853892326,,-0.00690626695629,-0.0067820197864,-0.719400701531,0.694527852805
1565339817939412476,,186,,1565339817,935058116,"""base_link""",,,0.704566121101,0.774534583092,0.205724954605,,-0.00106844783514,-0.00184234198178,-0.71888494357,0.695125817463
1565339818038369528,,187,,1565339818,33690929,"""base_link""",,,0.706577956676,0.753860592842,0.206680059433,,0.00290800860805,-0.000530632336486,-0.719094799661,0.694905699369
1565339818135553651,,188,,1565339818,135205984,"""base_link""",,,0.707967877388,0.734068453312,0.207182705402,,0.00384183342358,-0.000372375206822,-0.719811981921,0.694158348171
1565339818236412409,,189,,1565339818,235903978,"""base_link""",,,0.709380328655,0.714749574661,0.207138121128,,0.00400989324526,-0.000315447392925,-0.720021209721,0.693940400035
1565339818337417645,,190,,1565339818,335813045,"""base_link""",,,0.709490776062,0.696398675442,0.20694065094,,0.0028345138804,-0.00154325952384,-0.719385395704,0.694603654129
1565339818436898722,,191,,1565339818,433284997,"""base_link""",,,0.708860754967,0.677987635136,0.206690311432,,0.00146291439029,-0.00283436464811,-0.718472614039,0.695547934462
1565339818543720446,,192,,1565339818,542161941,"""base_link""",,,0.707386255264,0.660170435905,0.206083357334,,0.000490324886764,-0.00338299840835,-0.717649626217,0.696395956977
1565339818633360568,,193,,1565339818,632997035,"""base_link""",,,0.705406546593,0.64160823822,0.204933941364,,-0.000754176712742,-0.00310520650972,-0.717591168636,0.696457251815
1565339818734226803,,194,,1565339818,732904911,"""base_link""",,,0.703080892563,0.623220741749,0.203081190586,,-0.0018840752647,-0.00215200517595,-0.718138612146,0.695894210983
1565339818833524503,,195,,1565339818,833134889,"""base_link""",,,0.700260281563,0.603972315788,0.200564861298,,-0.00127072991255,-0.00118159208403,-0.718616396218,0.695404532752
1565339818932982726,,196,,1565339818,932533979,"""base_link""",,,0.697056472301,0.584837555885,0.199167907238,,-0.00196085488286,-0.000255760870933,-0.719127422256,0.694875413433
1565339819037954542,,197,,1565339819,32989978,"""base_link""",,,0.69357252121,0.565857887268,0.197318971157,,-0.00140918513859,0.000380220369584,-0.719147898313,0.694855502951
1565339819139088211,,198,,1565339819,133631944,"""base_link""",,,0.69019651413,0.546200811863,0.195945084095,,-0.0012317702676,9.26593219956e-06,-0.719088480995,0.694917433338
1565339819234494470,,199,,1565339819,232949972,"""base_link""",,,0.686834692955,0.526346325874,0.194925665855,,-0.00139840199407,-0.00020649267648,-0.718501630761,0.695523837425
1565339819332571507,,200,,1565339819,332135915,"""base_link""",,,0.68309867382,0.507052242756,0.194742083549,,-0.00158759666163,0.000323650188995,-0.717316339169,0.696745753018
1565339819434191075,,201,,1565339819,432749032,"""base_link""",,,0.679148793221,0.486852586269,0.19520586729,,-0.00157606327732,0.000542790220613,-0.716118933092,0.697976285464
1565339819532742682,,202,,1565339819,532033920,"""base_link""",,,0.675068616867,0.466516375542,0.195938169956,,-0.00204527476196,0.00127591306782,-0.715193591367,0.698922253018
1565339819635484101,,203,,1565339819,633285045,"""base_link""",,,0.670575737953,0.446866929531,0.197091817856,,-0.00280866911449,0.00188825294247,-0.71492418958,0.699193785035
1565339819734395614,,204,,1565339819,733014106,"""base_link""",,,0.666847765446,0.427132248878,0.198369443417,,-0.00337870563316,0.00215439614603,-0.714478753421,0.699645663058
1565339819850751172,,205,,1565339819,841209888,"""base_link""",,,0.663353204727,0.406582474709,0.199393093586,,-0.00265966522948,0.00234215529189,-0.713771790885,0.700369381846
1565339819935021068,,206,,1565339819,933662891,"""base_link""",,,0.660465955734,0.38581430912,0.20012897253,,-0.00274196260797,0.00341324318973,-0.712991770887,0.701158731001
1565339820035042809,,207,,1565339820,31301021,"""base_link""",,,0.658422589302,0.365854859352,0.201325416565,,-0.00225989663827,0.00271643289614,-0.712694074791,0.701466085864
1565339820132160590,,208,,1565339820,131488084,"""base_link""",,,0.656196892262,0.346165180206,0.202345132828,,-0.00199176354374,0.0019716443297,-0.712434229131,0.701733293111
1565339820247558518,,209,,1565339820,243288993,"""base_link""",,,0.654886960983,0.32613414526,0.203303515911,,-0.0020904758552,0.00223690421291,-0.712131901099,0.702039017154
1565339820336277757,,210,,1565339820,332103013,"""base_link""",,,0.653855919838,0.305995225906,0.204582691193,,-0.000937311459905,0.0017736807547,-0.711929529793,0.702248047425
1565339820433306372,,211,,1565339820,432733058,"""base_link""",,,0.652941584587,0.286477565765,0.205461084843,,-0.000960817738708,0.000457651251415,-0.711983183557,0.702195708984
1565339820533666754,,212,,1565339820,532852888,"""base_link""",,,0.652070760727,0.266630649567,0.205987632275,,-0.000906907723262,-0.000309323873552,-0.712180794382,0.701995440121
1565339820633915530,,213,,1565339820,632213115,"""base_link""",,,0.650678813457,0.24739164114,0.206818819046,,-0.001130213138,-0.000110523687664,-0.712223081206,0.701952272594
1565339820734328523,,214,,1565339820,733827114,"""base_link""",,,0.649493038654,0.226886510849,0.207050561905,,-0.000921702416959,-0.000484206026709,-0.712126690451,0.702050206721
1565339820833448523,,215,,1565339820,832849979,"""base_link""",,,0.648018121719,0.207462608814,0.207258462906,,-0.000968490688353,0.00188606671215,-0.710866688238,0.703323578683
1565339820934793851,,216,,1565339820,933137893,"""base_link""",,,0.647442817688,0.187755703926,0.207804262638,,-0.00282284407539,0.00331519172027,-0.709446846137,0.704745495595
1565339821031213302,,217,,1565339821,30361890,"""base_link""",,,0.647109031677,0.168703138828,0.20743894577,,-0.00170986317121,0.00180367019211,-0.707788873871,0.70641965797
1565339821143332992,,218,,1565339821,142214059,"""base_link""",,,0.647566795349,0.15021032095,0.207301497459,,-0.00254907441731,0.00180117085548,-0.704719921691,0.709478745259
1565339821231698556,,219,,1565339821,230941057,"""base_link""",,,0.649132370949,0.131615877151,0.206390559673,,1.30696638918e-05,0.00374145194751,-0.704751651245,0.709444227148
1565339821334243175,,220,,1565339821,332215070,"""base_link""",,,0.651564717293,0.114089369774,0.204647958279,,0.00196555831629,-9.08350111984e-05,-0.704641297681,0.709560969848
1565339821432601001,,221,,1565339821,431305885,"""base_link""",,,0.654764175415,0.0971940159798,0.203568279743,,-0.000657076725859,-0.000118266976718,-0.703349557013,0.710843832999
1565339821530979854,,222,,1565339821,530345916,"""base_link""",,,0.658579707146,0.080693602562,0.202600181103,,-0.000688291628366,-0.00271690395832,-0.703871124582,0.71032216963
1565339821631609387,,223,,1565339821,631002902,"""base_link""",,,0.66269248724,0.0640931129456,0.201569914818,,-0.00111947417079,-0.00505327756921,-0.707151804904,0.707042810574
1565339821730213480,,224,,1565339821,729899883,"""base_link""",,,0.667088389397,0.0472084879875,0.200455784798,,0.00227877615564,-0.0045984082647,-0.711525749165,0.702641281236
1565339821833732645,,225,,1565339821,832514047,"""base_link""",,,0.670446515083,0.0307220816612,0.200274825096,,0.0035856231261,-0.00617166403602,-0.71603281071,0.698030133917
1565339821929606485,,226,,1565339821,929308891,"""base_link""",,,0.672353684902,0.0139889121056,0.199321091175,,0.0032576779404,-0.00748738436807,-0.720910147297,0.69298043705
1565339822033200811,,227,,1565339822,29917955,"""base_link""",,,0.673227131367,-0.00293469429016,0.198501646519,,0.00262753421632,-0.00606931863701,-0.724291158623,0.689462527608
1565339822134424699,,228,,1565339822,132261991,"""base_link""",,,0.673095583916,-0.0201997160912,0.197483479977,,0.0012099312141,-0.00593368673317,-0.726221056573,0.687434581919
1565339822239505926,,229,,1565339822,232230901,"""base_link""",,,0.671412587166,-0.0377405285835,0.196471571922,,-1.1811169667e-06,-0.00713118954216,-0.725378857035,0.688312908422
1565339822332813104,,230,,1565339822,330732107,"""base_link""",,,0.66979932785,-0.0562204122543,0.196724057198,,-0.000935642913685,-0.0047967263771,-0.720788176261,0.69313816873
1565339822440653949,,231,,1565339822,440217018,"""base_link""",,,0.667351722717,-0.074710547924,0.198254048824,,0.0118465272799,0.0139855977596,-0.713667909391,0.700244370168
1565339822532721734,,232,,1565339822,530770063,"""base_link""",,,0.665077567101,-0.0911358594894,0.199973404408,,0.0149220045553,0.0222620016705,-0.709122745209,0.70457552419
1565339822635051943,,233,,1565339822,630811929,"""base_link""",,,0.662501573563,-0.102946639061,0.202174246311,,0.0162767463576,0.0217712407024,-0.706089099885,0.707601062485
1565339822729318421,,234,,1565339822,728912115,"""base_link""",,,0.660768032074,-0.110194683075,0.203678488731,,0.0100901848355,0.0159051512743,-0.703627593,0.710319241399
1565339822831368483,,235,,1565339822,830733060,"""base_link""",,,0.659426093102,-0.113686859608,0.204971969128,,0.00775491554738,0.00959245576748,-0.70199401095,0.712076017478
1565339822928863158,,236,,1565339822,928503990,"""base_link""",,,0.657878577709,-0.115545988083,0.20545309782,,0.00146777217812,0.00369240171489,-0.701278081615,0.712876752363
1565339823031168435,,237,,1565339823,29248952,"""base_link""",,,0.656649231911,-0.11607170105,0.205367386341,,-0.00127286869414,0.000386690823944,-0.700693842807,0.713460839099
1565339823129056956,,238,,1565339823,128608942,"""base_link""",,,0.655811369419,-0.118004441261,0.204174697399,,-0.00172986752735,-0.00201774847398,-0.701115593128,0.713042678472
1565339823229059228,,239,,1565339823,228717088,"""base_link""",,,0.654681682587,-0.119494140148,0.203553318977,,-0.00174017888997,-0.00107616088451,-0.701608521613,0.712559678943
1565339823331559744,,240,,1565339823,329317092,"""base_link""",,,0.654378652573,-0.12274569273,0.202425181866,,-0.00115184960969,0.00119096291587,-0.701844014893,0.712328739845
1565339823428532538,,241,,1565339823,427877902,"""base_link""",,,0.653851985931,-0.124934196472,0.201569378376,,0.000403340141983,0.00203674647823,-0.701917040603,0.712255682386
1565339823531486334,,242,,1565339823,529568910,"""base_link""",,,0.65404188633,-0.126909941435,0.200463533401,,0.000719873887745,0.00336120926457,-0.701892523624,0.712274574399
1565339823632428443,,243,,1565339823,628690958,"""base_link""",,,0.654393196106,-0.12881731987,0.19916677475,,0.00242127969301,0.00183683151045,-0.701815555725,0.712352222708
1565339823743334630,,244,,1565339823,742937088,"""base_link""",,,0.654446005821,-0.129922062159,0.198225855827,,0.0025417759971,0.0013353225399,-0.702248861576,0.711925763478
1565339823831347519,,245,,1565339823,830501079,"""base_link""",,,0.655107855797,-0.13060888648,0.197888493538,,0.000331058018746,0.000962365398269,-0.701414024679,0.712753344599
1565339823929687304,,246,,1565339823,928246021,"""base_link""",,,0.655691504478,-0.131148844957,0.198362469673,,0.000244587495048,0.000277850129701,-0.700898538017,0.71326089363
1565339824030004648,,247,,1565339824,29524087,"""base_link""",,,0.656516373158,-0.130635559559,0.200161218643,,-0.00028120079698,0.000465033718759,-0.700288979352,0.713859264889
1565339824129903442,,248,,1565339824,127789974,"""base_link""",,,0.657436609268,-0.130534917116,0.201826870441,,-0.000532785067384,0.000840153491769,-0.700440057206,0.713710541146
1565339824232696084,,249,,1565339824,229307889,"""base_link""",,,0.658948600292,-0.130230009556,0.202880680561,,-0.000655235244641,0.00054006506192,-0.701396823072,0.712770492922
1565339824330032039,,250,,1565339824,329550027,"""base_link""",,,0.660487234592,-0.130164057016,0.204106271267,,0.000568316358261,-0.00108517885348,-0.701839352846,0.712334206816
1565339824428167120,,251,,1565339824,427624940,"""base_link""",,,0.661834776402,-0.12950310111,0.205365180969,,0.0032971124156,-0.00203953883147,-0.707877356126,0.706324725615
1565339824531345827,,252,,1565339824,528122901,"""base_link""",,,0.66199028492,-0.128835082054,0.206447064877,,0.00313528823388,-0.00191089815199,-0.727577946189,0.686015197102
1565339824628967194,,253,,1565339824,628192901,"""base_link""",,,0.660783171654,-0.127375841141,0.206496655941,,0.00418181829322,-0.00208171160544,-0.755636596004,0.654974437403
1565339824731065195,,254,,1565339824,728487968,"""base_link""",,,0.659091889858,-0.12513962388,0.206246554852,,0.00246013305681,-0.00298816835791,-0.788961181301,0.6144308529
1565339824828415972,,255,,1565339824,828088045,"""base_link""",,,0.65596306324,-0.122255563736,0.205418944359,,0.000101173180659,-0.00130066680092,-0.824598435467,0.565716994843
1565339824928474662,,256,,1565339824,926737070,"""base_link""",,,0.652929663658,-0.119668245316,0.205147981644,,-0.00156817192223,0.00163463950076,-0.858925549061,0.512095469576
1565339825045073500,,257,,1565339825,41275978,"""base_link""",,,0.649225354195,-0.116779267788,0.205582678318,,-0.000136884880823,0.00240404874481,-0.889921628167,0.456107111907
1565339825127385397,,258,,1565339825,126775979,"""base_link""",,,0.646493256092,-0.11416131258,0.206455767155,,-0.000594671772371,0.0041353707135,-0.917204715692,0.398394345576
1565339825229360721,,259,,1565339825,227457046,"""base_link""",,,0.644017100334,-0.111177802086,0.208214402199,,0.000361213993174,0.00203162234031,-0.941033381545,0.338307429497
1565339825327219523,,260,,1565339825,326795101,"""base_link""",,,0.642301440239,-0.109162569046,0.210389137268,,-0.00170712919208,0.00112390375204,-0.960903299116,0.276876637329
1565339825437743627,,261,,1565339825,437052965,"""base_link""",,,0.640516579151,-0.106502473354,0.212158501148,,-0.000923562957661,0.00187032032,-0.976645867479,0.214845289616
1565339825530096886,,262,,1565339825,528012990,"""base_link""",,,0.639093637466,-0.10427069664,0.212876319885,,0.000268810084465,0.00041683149585,-0.988425268332,0.151707754959
1565339825627783088,,263,,1565339825,626882076,"""base_link""",,,0.636898994446,-0.102103888988,0.212412714958,,0.00142684855982,-0.00138495125291,-0.99617266704,0.0873845721869
1565339825726246438,,264,,1565339825,725792884,"""base_link""",,,0.635523200035,-0.0992804169655,0.210170269012,,0.00191287650577,-0.00186408339783,-0.999230157039,0.0391402524349
1565339825829949345,,265,,1565339825,828594923,"""base_link""",,,0.633828043938,-0.0963633656502,0.207413911819,,0.000196045008858,-0.00062103715256,-0.99994512531,0.0104557280165
1565339825928325922,,266,,1565339825,927292108,"""base_link""",,,0.632143259048,-0.0933122634888,0.203840076923,,-0.000924662397959,-0.000851655120601,0.999978441135,0.00644491644512
1565339826026172411,,267,,1565339826,25782108,"""base_link""",,,0.62981826067,-0.0896558761597,0.200616002083,,-0.000722998722253,-0.00179400023289,0.999881036848,0.0153026464089
1565339826128015326,,268,,1565339826,127531051,"""base_link""",,,0.627781331539,-0.0864707827568,0.198265969753,,-0.00162341171728,-0.00352091577753,0.999814683847,0.0188564485284
1565339826233635158,,269,,1565339826,229161024,"""base_link""",,,0.625361859798,-0.0828514695168,0.196732640266,,-0.00243851555295,-0.00301663940236,0.999817287793,0.0187174934079
1565339826326172275,,270,,1565339826,325380086,"""base_link""",,,0.623553514481,-0.0799334049225,0.196933269501,,-0.00217712605958,-0.00401502747585,0.999859196847,0.0161470169707
1565339826430304884,,271,,1565339826,427257061,"""base_link""",,,0.622212767601,-0.0776523947716,0.197602927685,,-0.0019354746791,-0.00310240895168,0.999918494529,0.0122324689059
1565339826529781229,,272,,1565339826,527625083,"""base_link""",,,0.620838820934,-0.0754132866859,0.198602795601,,-0.000398902710695,-0.00244766967673,0.999954613223,0.0091989827298
1565339826626100530,,273,,1565339826,625663042,"""base_link""",,,0.61966753006,-0.0735356211662,0.19967007637,,3.04695614608e-06,-0.00355101005489,0.999973849634,0.00630002913098
1565339826737681522,,274,,1565339826,736872911,"""base_link""",,,0.617382407188,-0.0727387070656,0.200029850006,,0.0227748273494,-0.00186505334904,0.999734197259,0.00306000758203
1565339826827066635,,275,,1565339826,825301885,"""base_link""",,,0.611621618271,-0.0718958973885,0.200200915337,,-0.0274459348158,0.00111076699038,-0.999621118898,0.00176224635724
1565339826925332604,,276,,1565339826,924900054,"""base_link""",,,0.601112604141,-0.0720888972282,0.200632274151,,-0.0266103228661,0.00345252424912,-0.999628322088,0.00481544107715
1565339827030394920,,277,,1565339827,26076078,"""base_link""",,,0.585575222969,-0.0735738873482,0.201732814312,,-0.0175816417446,0.00212235715312,-0.999807153016,0.0084875350311
1565339827128417703,,278,,1565339827,127031087,"""base_link""",,,0.56664288044,-0.0762409567833,0.201821386814,,-0.00959829075206,0.00171446827335,-0.999889228037,0.0112456688512
1565339827228483264,,279,,1565339827,224730968,"""base_link""",,,0.545608878136,-0.0796245336533,0.201953947544,,-0.00126036141096,0.00408952440624,-0.999898159217,0.0136146419181
1565339827326528197,,280,,1565339827,325339078,"""base_link""",,,0.524644076824,-0.0840327739716,0.201301217079,,0.00366683389988,0.00330566115604,-0.999848345382,0.016700693728
1565339827424796200,,281,,1565339827,424463033,"""base_link""",,,0.504381835461,-0.0893259644508,0.199903070927,,0.00365786038173,0.000714905095245,-0.999824491097,0.0183601735111
1565339827526863880,,282,,1565339827,524823904,"""base_link""",,,0.484748333693,-0.0957292318344,0.198383688927,,0.00381184286903,-0.00158901193542,-0.999807321987,0.0191902005383
1565339827624831811,,283,,1565339827,624416112,"""base_link""",,,0.465818434954,-0.102347671986,0.197212576866,,0.00187756255428,-0.00317517300112,-0.999802658805,0.019520155763
1565339827724994498,,284,,1565339827,723901033,"""base_link""",,,0.447814106941,-0.109065711498,0.196930527687,,0.000394131991145,-0.003253157925,-0.999801031386,0.0196763630449
1565339827824696851,,285,,1565339827,824001073,"""base_link""",,,0.42978733778,-0.115521967411,0.197102427483,,-0.00147785034256,-0.00441640907455,-0.999816535511,0.01857973648
1565339827930406927,,286,,1565339827,927381038,"""base_link""",,,0.411344051361,-0.12145370245,0.197851598263,,-0.00224631217926,-0.00528548217783,-0.999856437428,0.0159412136628
1565339828025871373,,287,,1565339828,24696111,"""base_link""",,,0.392159968615,-0.127303630114,0.1995049119,,-0.00198998279916,-0.0028285590159,-0.999938868466,0.0105023117798
1565339828131936557,,288,,1565339828,124444961,"""base_link""",,,0.373486042023,-0.133621573448,0.201406538486,,-0.000179007147035,-0.00195725700069,-0.999987784531,0.00453518358808
1565339828228759634,,289,,1565339828,227255105,"""base_link""",,,0.354603558779,-0.139864236116,0.202458441257,,0.00107546302633,0.00369502304473,0.999989691762,0.00240967926058
1565339828327310376,,290,,1565339828,324805021,"""base_link""",,,0.33567789197,-0.146295189857,0.203784346581,,0.0019489186064,0.00571459424651,0.999958251059,0.00685866373068
1565339828440302331,,291,,1565339828,434514045,"""base_link""",,,0.316030859947,-0.152737468481,0.204581975937,,0.0028440622019,0.00787691491724,0.999892257176,0.0120556858098
1565339828525382897,,292,,1565339828,523833036,"""base_link""",,,0.296745181084,-0.157813966274,0.204675376415,,0.00284561097522,0.00780897878532,0.999815106049,0.0173400134054
1565339828625437018,,293,,1565339828,623594999,"""base_link""",,,0.276825726032,-0.161942064762,0.204241812229,,0.00285717736345,0.00898751005858,0.99970063565,0.0225765427415
1565339828725765580,,294,,1565339828,724131107,"""base_link""",,,0.256541788578,-0.165350437164,0.203057289124,,0.00139847824594,0.00809887403808,0.999560998277,0.028465122887
1565339828828585039,,295,,1565339828,825500011,"""base_link""",,,0.236340910196,-0.166740506887,0.202895820141,,0.000569010653805,0.0087085168731,0.999389987336,0.0338155463379
1565339828928054936,,296,,1565339828,925103902,"""base_link""",,,0.216481685638,-0.167340040207,0.202374517918,,-0.000216756610302,0.00685848602139,0.999293033751,0.0369641296762
1565339829025858432,,297,,1565339829,23607015,"""base_link""",,,0.196397960186,-0.166342198849,0.203124523163,,-0.000210450378662,0.00479313906352,0.999237412834,0.0387501525287
1565339829124177487,,298,,1565339829,123039960,"""base_link""",,,0.176708638668,-0.164243996143,0.203270673752,,0.000402071756859,0.00330913821061,0.999242949263,0.0387610151021
1565339829225414115,,299,,1565339829,224252939,"""base_link""",,,0.15645813942,-0.1624173522,0.203456223011,,0.0014339787264,0.00139420710274,0.999306980656,0.0371693194009
1565339829324386332,,300,,1565339829,323215961,"""base_link""",,,0.136475980282,-0.159997701645,0.202486693859,,0.000706664289368,0.000570274125585,0.999425599545,0.0338769300246
1565339829424132864,,301,,1565339829,423259019,"""base_link""",,,0.116592943668,-0.157757937908,0.200011253357,,-0.000717307106396,-0.00148495304476,0.999569083851,0.0293074563048
1565339829527115867,,302,,1565339829,525015115,"""base_link""",,,0.0967492461205,-0.156010270119,0.197357356548,,0.000206930814392,-0.00165842117652,0.999678393105,0.0253044892863
1565339829627146553,,303,,1565339829,623766899,"""base_link""",,,0.0770182013512,-0.154620170593,0.19514811039,,-0.000246622568146,-0.00146744686431,0.999762210848,0.0217556323081
1565339829736847788,,304,,1565339829,735466957,"""base_link""",,,0.0578080415726,-0.153434574604,0.193514108658,,0.000279306437294,0.000185773917441,0.999781713536,0.020890494362
1565339829826031115,,305,,1565339829,824703931,"""base_link""",,,0.0384576320648,-0.152753382921,0.192841589451,,0.000229365514077,0.00104913161077,0.999781216194,0.0208893863125
1565339829928134611,,306,,1565339829,922584056,"""base_link""",,,0.019268989563,-0.151292413473,0.192370414734,,0.000538510360443,0.000465979508965,0.999786367099,0.0206570334835
1565339830025790362,,307,,1565339830,23430109,"""base_link""",,,0.000342965126038,-0.150006532669,0.191885590553,,0.00121160102231,0.00144550593786,0.999787372701,0.0205341647574
1565339830128667618,,308,,1565339830,126041889,"""base_link""",,,-0.018542766571,-0.149107456207,0.192395210266,,-0.00184782016073,-0.00220578256603,0.999854255949,0.0168281592776
1565339830223395564,,309,,1565339830,222361087,"""base_link""",,,-0.0373128652573,-0.148778498173,0.193681895733,,-0.000100012675573,-0.00330273376187,0.999898186085,0.0138816213633
1565339830329281615,,310,,1565339830,321923017,"""base_link""",,,-0.0556772947311,-0.150067418814,0.194747388363,,0.00253386945429,-0.00474670531969,0.99994144849,0.00938871055331
1565339830423571812,,311,,1565339830,421530961,"""base_link""",,,-0.0739856958389,-0.15210917592,0.19519007206,,0.00312266722493,-0.000451833238867,0.999963502234,0.00793971005114
1565339830523859438,,312,,1565339830,523025989,"""base_link""",,,-0.0928595662117,-0.154721498489,0.195718765259,,0.00420995321642,0.00305062532381,0.999955342196,0.00789199542803
1565339830627045641,,313,,1565339830,622308969,"""base_link""",,,-0.11229801178,-0.157415628433,0.195561826229,,-0.00320136454088,0.00540492851615,0.999919491558,0.0110248997393
1565339830723235980,,314,,1565339830,722397089,"""base_link""",,,-0.13165217638,-0.158832967281,0.193245768547,,-0.00355863130357,0.00748879643688,0.99982141432,0.0169821535459
1565339830822360947,,315,,1565339830,821645021,"""base_link""",,,-0.15015822649,-0.159151643515,0.190474510193,,0.00162956390881,0.00558870778468,0.999760184723,0.0211112271032
1565339830922351241,,316,,1565339830,921386957,"""base_link""",,,-0.168870091438,-0.157785207033,0.188383042812,,0.00142816587145,0.00569805747716,0.99974036082,0.0220159812362
1565339831022290457,,317,,1565339831,21517038,"""base_link""",,,-0.187141120434,-0.15541395545,0.187610387802,,0.00155557970139,0.00234252327644,0.999717022162,0.0236213538201
1565339831125319727,,318,,1565339831,120851039,"""base_link""",,,-0.206470072269,-0.152536302805,0.188277244568,,0.00124666602055,0.00293641513305,0.999692696607,0.0245832390284
1565339831230414943,,319,,1565339831,224169015,"""base_link""",,,-0.226080298424,-0.149575799704,0.190665006638,,0.00503722186839,-0.00165096759281,0.999768608327,0.0208477937895
1565339831324539836,,320,,1565339831,323503017,"""base_link""",,,-0.24640083313,-0.146434724331,0.1933837533,,0.00415197766841,-0.00347312605771,0.999876767114,0.0147359785084
1565339831423093233,,321,,1565339831,421108961,"""base_link""",,,-0.268396794796,-0.143721938133,0.195599019527,,0.0027126008372,-0.0046751876473,0.999949683788,0.00845069872615
1565339831521548947,,322,,1565339831,520834922,"""base_link""",,,-0.29065823555,-0.142055630684,0.197679460049,,0.00129403481388,-0.00684259482693,0.999956838854,0.00615018691547
1565339831620662680,,323,,1565339831,620302915,"""base_link""",,,-0.313737809658,-0.14166623354,0.198552250862,,-0.00112956477014,-0.00268192293758,0.999972119028,0.00687695711853
1565339831723756791,,324,,1565339831,720715045,"""base_link""",,,-0.334791004658,-0.141318559647,0.199761927128,,-0.0268898829376,0.000345060961558,0.999591403903,0.00968712399514
1565339831824592419,,325,,1565339831,821691989,"""base_link""",,,-0.352390527725,-0.140831053257,0.200111865997,,-0.0303823137173,-0.0015990577223,0.999437256426,0.0141254556055
1565339831921189441,,326,,1565339831,919821977,"""base_link""",,,-0.363712310791,-0.139849096537,0.199870049953,,-0.0274724341173,0.00212245875264,0.999454137868,0.0182259932528
1565339832023464795,,327,,1565339832,22267103,"""base_link""",,,-0.370763063431,-0.138824611902,0.199456512928,,-0.020848246169,0.00355203813417,0.999559496143,0.0208217993022
1565339832124269350,,328,,1565339832,122176885,"""base_link""",,,-0.374284744263,-0.136447697878,0.199445128441,,-0.0104929543474,0.00212095527306,0.999719453755,0.0211284936167
1565339832224676831,,329,,1565339832,220803022,"""base_link""",,,-0.376108050346,-0.133643060923,0.198967754841,,-0.00447956174921,0.000931831879524,0.999794095173,0.0197694834032
1565339832332729141,,330,,1565339832,330341100,"""base_link""",,,-0.377415716648,-0.130290597677,0.197976231575,,-0.00154505142202,0.00203332065919,0.999805934091,0.0195338828856
1565339832421986613,,331,,1565339832,420099973,"""base_link""",,,-0.379591822624,-0.126458615065,0.197350919247,,0.000292720060428,-0.00100308241994,0.999787353364,0.0205950526595
1565339832524979188,,332,,1565339832,520714044,"""base_link""",,,-0.381885409355,-0.122899055481,0.195486783981,,-0.00108029403007,-0.00153367507287,0.99977189257,0.0212754231939
1565339832621835453,,333,,1565339832,621130943,"""base_link""",,,-0.384599983692,-0.119319558144,0.193567156792,,-0.00175055600165,-0.00440381972214,0.99974300308,0.022169116324
1565339832723583865,,334,,1565339832,721278905,"""base_link""",,,-0.388005673885,-0.116604745388,0.191621303558,,0.000258611703717,-0.00607325197973,0.999686543632,0.0242870996831
1565339832822549437,,335,,1565339832,821568965,"""base_link""",,,-0.391151666641,-0.11524361372,0.190703034401,,-0.000815665866818,-0.00510235084353,0.999640660729,0.0263030439607
1565339832922832621,,336,,1565339832,921653985,"""base_link""",,,-0.394606590271,-0.115144014359,0.191401302814,,-0.00325949357153,-0.00304102237251,0.999623519707,0.0270729890069
1565339833020560617,,337,,1565339833,19634962,"""base_link""",,,-0.397834777832,-0.115749359131,0.192499399185,,-0.00422245663551,-0.000979245062072,0.999627941864,0.026929348001
1565339833120354821,,338,,1565339833,119657039,"""base_link""",,,-0.400244414806,-0.115927577019,0.193888127804,,-0.00375406532098,0.000699915355121,0.999594207793,0.0282282989041
1565339833224190836,,339,,1565339833,219999074,"""base_link""",,,-0.401248335838,-0.11602139473,0.194662511349,,-0.00486063297624,0.00288600939206,0.999495225529,0.0312624269807
1565339833323014693,,340,,1565339833,318433046,"""base_link""",,,-0.402293503284,-0.115667283535,0.195589125156,,-0.00230321945553,0.00237085838572,0.999454927084,0.032846962388
1565339833425010187,,341,,1565339833,420063972,"""base_link""",,,-0.402682900429,-0.114407777786,0.197240531445,,-0.000224708442043,-0.00177748600187,0.999495995492,0.0316945586083
1565339833520307719,,342,,1565339833,519543886,"""base_link""",,,-0.402599811554,-0.113343238831,0.198955774307,,-0.00118454360022,-0.00108623513653,0.999585279062,0.0287521622199
1565339833623355958,,343,,1565339833,619152069,"""base_link""",,,-0.401996195316,-0.112278819084,0.20058041811,,-0.00142194189942,-0.000324507994561,0.999589302476,0.0286199082925
1565339833722131632,,344,,1565339833,719389915,"""base_link""",,,-0.400958120823,-0.110982239246,0.200672507286,,0.00121307313094,0.00110559167303,0.998772653568,0.0495024504978
1565339833819582328,,345,,1565339833,819176912,"""base_link""",,,-0.399555504322,-0.10847389698,0.200505435467,,-0.000204371389931,0.00211973227133,0.996154495123,0.0875881659403
1565339833919396016,,346,,1565339833,918929100,"""base_link""",,,-0.397707283497,-0.105505287647,0.200518369675,,0.00122148154883,-0.000629926879393,0.990789976074,0.135400644337
1565339834021541733,,347,,1565339834,20270109,"""base_link""",,,-0.395674705505,-0.101506650448,0.200335562229,,-0.00221681405229,-0.00143251329623,0.981917906925,0.189288820856
1565339834122166370,,348,,1565339834,119519948,"""base_link""",,,-0.393124699593,-0.0973960757256,0.200393736362,,-0.00251919924196,0.000194138566882,0.969455937665,0.245252524701
1565339834225198075,,349,,1565339834,221431970,"""base_link""",,,-0.38988751173,-0.093545794487,0.200076282024,,-0.00223725840343,0.00103832116066,0.952368354707,0.304940049054
